,Station,OS X,OS Y,Latitude,Longitude,Zone,Postcode
0,Abbey Road,539081,183352,51.53195199,0.0037233709999999996,3,E15 3NB
1,Abbey Wood,547297,179002,51.4907841,0.12027197,4,SE2 9RH
2,Acton Central,520613,180299,51.50875778,-0.263430199,2,W3 6BH
3,Acton Main Line,520296,181196,51.51688693,-0.267689952,3,W3 9EH
4,Acton Town,519457,179639,51.50307144,-0.280302701,3,W3 8HN
5,Addington Village,537082,163744,51.35623859,-0.0326651,"3,4,5,6",CR0 5AR
6,Addiscombe,534190,166290,51.37980829,-0.073213283,"3,4,5,6",CR0 7AA
7,Albany Park,547903,172902,51.43581561,0.126444638,5,DA5 3HP
8,Aldgate,533629,181246,51.51434238,-0.075626913,1,EC3N 1AH
9,Aldgate East,533809,181333,51.51508162,-0.073001463,1,E1 7PT
10,Alexandra Palace,530300,190498,51.59826282,-0.12014897199999999,3,N22 7ST
11,All Saints,538012,180933,51.51047692,-0.012624885,2,E14 0EH
12,Alperton,518025,183849,51.54120927,-0.299515759,4,HA0 4LL
13,Amersham,496454,198181,51.67412932,-0.606513789,9,HP6 5AZ
14,Ampere Way,530674,166476,51.38229942,-0.123636799,"3,4,5,6",CR0 3JX
15,Anerley,534656,169942,51.41251672,-0.0651371,4,SE20 8PY
16,Angel,531497,183263,51.53296802,-0.10558144900000001,1,N1 8XB
17,Angel Road,535204,192202,51.61242032,-0.048732919000000006,4,N18 3AY
18,Archway,529356,186827,51.56549053,-0.135121577,"2,3",N19 5RQ
19,Arena,535192,167620,51.39152275,-0.05831855,"3,4,5,6",SE25 4RY
20,Arnos Grove,529271,192471,51.61623014,-0.134270219,4,N11 1AN
21,Arsenal,531429,186107,51.55854138,-0.105499934,2,N5 1LP
22,Avenue Road,535764,169335,51.40679798,-0.049446937,"3,4,5,6",BR3 4NJ
23,Baker Street,527965,182078,51.52312962,-0.156904194,1,NW1 5LA
24,Balham,528482,173195,51.44318256,-0.152685163,3,SW12 9SG
25,Bank,532704,181111,51.51334706,-0.089000124,1,EC3V 3LA
26,Banstead,524590,160426,51.32929312,-0.213132336,6,SM7 1RB
27,Barbican,532079,181859,51.52021528,-0.097721579,1,EC1A 4JA
28,Barking,544405,184343,51.53952111,0.08083161,4,IG11 8TU
29,Barkingside,544788,189510,51.58585061,0.08847664,4,IG6 1NB
30,Barnehurst,550206,176193,51.46478029,0.160948022,6,DA7 6HQ
31,Barnes,522209,175705,51.46712777,-0.242033062,3,SW13 0LW
32,Barnes Bridge,521478,176255,51.47222805,-0.252362617,3,SW13 0NR
33,Barons Court,524133,178322,51.49022868,-0.213430145,2,W14 9DP
34,Battersea Park,528703,176999,51.47731832,-0.148123762,2,SW8 4NB
35,Battersea Power Station,529122,177252,51.47949657,-0.142001353,1,None
36,Bayswater,525845,180799,51.51211129,-0.187901574,1,W2 4QH
37,Beckenham Hill,538002,171379,51.42462606,-0.016495762,4,SE6 3NU
38,Beckenham Junction,537403,169840,51.41094164,-0.025701738999999998,4,BR3 1HY
39,Beckenham Road,536177,169650,51.40952975,-0.043391922,"3,4,5,6",BR3 4RR
40,Beckton,543145,181509,51.51437663,0.061525297,3,E6 5NT
41,Beckton Park,542697,180887,51.50890079,0.05482193900000001,3,E6 5NE
42,Becontree,547598,184442,51.53958541,0.126880292,5,RM9 4TP
43,Beddington Lane,529367,167215,51.38923988,-0.142138434,"3,4,5,6",CR0 4TF
44,Belgrave Walk,526805,168455,51.40096165,-0.178496474,"3,4,5,6",CR4 4NY
45,Bellingham,537702,172399,51.43386489,-0.02041177,3,SE6 3BT
46,Belmont,525500,162098,51.34411992,-0.199489253,5,SM2 6BH
47,Belsize Park,527399,185075,51.55019088,-0.163974493,2,NW3 2AL
48,Belvedere,549498,179197,51.491959,0.152033792,5,DA17 6JW
49,Bermondsey,534461,179445,51.49796078,-0.06433009,2,SE16 4RX
50,Berrylands,519728,168040,51.39876841,-0.280321477,5,KT5 8LT
51,Bethnal Green,534995,182712,51.52719174,-0.055392112,2,E2 0ET
52,Bethnal Green Rail,534683,182380,51.52428274,-0.060013743,2,E2 6JL
53,Bexley,549399,173502,51.44081453,0.14820391300000002,6,DA5 1AQ
54,Bexleyheath,548294,176000,51.46354996,0.133362965,5,DA7 4AA
55,Bickley,542304,168799,51.40037957,0.044304032,5,BR1 2EB
56,Birkbeck,535297,168996,51.40386309,-0.056286235999999996,4,BR3 4TA
57,Blackfriars,531738,180890,51.51158693,-0.102995385,1,EC4V 4DD
58,Blackheath,539604,175961,51.46540801,0.008336595,3,SE3 9LE
59,Blackhorse Lane,534362,166844,51.38474618,-0.070533948,"3,4,5,6",CR0 6NL
60,Blackhorse Road,535914,189256,51.58577663,-0.039625712,3,E17 6JJ
61,Blackwall,538394,180649,51.50783154,-0.0072351659999999995,2,E14 9QB
62,Bond Street,528497,181053,51.51379752,-0.14961361,1,W1C 2HU
63,Borough,532379,179734,51.50104887,-0.09419732300000001,1,SE1 1JX
64,Boston Manor,516391,178755,51.49576554,-0.324747189,4,TW8 9LQ
65,Bounds Green,529996,191466,51.60703192,-0.124177066,"3,4",N11 2EU
66,Bow Church,537414,182824,51.5276152,-0.020499899,2,E3 3AA
67,Bow Road,537148,182753,51.52704181,-0.024359591,2,E3 4DH
68,Bowes Park,530299,191498,51.60724951,-0.119792219,"3,4",N22 8NL
69,Brent Cross,523905,187927,51.57659922,-0.21333584100000003,3,NW11 9UA
70,Brentford,517462,177864,51.48753631,-0.309622537,4,TW8 9LF
71,Brentwood,559321,193036,51.61361034,0.299672816,7,CM14 4EW
72,Brimsdown,536297,196997,51.65524461,-0.031092277,5,EN3 7NA
73,Brixton,531076,175437,51.462736799999995,-0.114552098,2,SW9 8HE
74,Brockley,536405,175801,51.46474966,-0.037748251000000003,2,SE4 2RW
75,Bromley North,540395,169699,51.40894231,0.017235452,4,BR1 3NN
76,Bromley South,540431,168705,51.40000129,0.01735958,5,BR1 1LX
77,Bromley-by-Bow,538034,182532,51.5248402,-0.011682373999999999,"2,3",E3 3BT
78,Brondesbury,524718,184460,51.54526236,-0.202838486,2,NW6 7QL
79,Brondesbury Park,524202,183898,51.54032537,-0.210473947,2,NW6 6RP
80,Broxbourne,537407,207240,51.74701557,-0.011024083999999998,9,EN10 7AW
81,Bruce Grove,533758,190115,51.59401125,-0.07039899,3,N17 8AD
82,Buckhurst Hill,541768,193957,51.62657666,0.046712540999999996,5,IG9 5ET
83,Burnham,494007,181378,51.52350505,-0.6463882329999999,None,SL1 6JT
84,Burnt Oak,520303,190728,51.60255191,-0.26433071199999997,4,HA8 0LA
85,Bush Hill Park,533696,195396,51.64148196,-0.069280413,5,EN1 1BA
86,Bushey,511860,195318,51.64554416,-0.384721541,8,WD19 4ST
87,Caledonian Road,530568,184899,51.54788544,-0.118360862,2,N7 9BA
88,Caledonian Road and Barnsbury,530800,184393,51.54328458,-0.115204857,2,N1 0SL
89,Cambridge Heath,534855,183250,51.53205976,-0.057203200999999995,2,E2 7NA
90,Camden Road,529140,184191,51.54185123,-0.13920311300000002,2,NW1 9LQ
91,Camden Town,528920,183976,51.53996935,-0.142452381,2,NW1 8NH
92,Canada Water,535399,179493,51.49816841,-0.050807121,2,SE16 7BB
93,Canary Wharf,537558,180153,51.503578399999995,-0.01946684,2,E14 4QS
94,Canning Town,539454,181350,51.51387029,0.008305633,3,E16 1DQ
95,Cannon Street,532623,180888,51.51136209,-0.090250527,1,EC4N 6AP
96,Canonbury,532355,184979,51.54818839,-0.092574196,2,N1 2PG
97,Canons Park,518208,191246,51.60765057,-0.294391597,5,HA8 6RN
98,Carpenders Park,511826,193386,51.62818672,-0.385829324,7,WD19 7DT
99,Carshalton,527737,164858,51.36842637,-0.166398328,5,SM5 2HT
100,Carshalton Beeches,527552,163625,51.35738684,-0.169496326,5,SM5 3LG
101,Castle Bar Park,515853,181770,51.52297367,-0.33150407600000004,4,W7 1AY
102,Caterham,534099,155422,51.28216282,-0.078607299,6,CR3 6LB
103,Catford,537245,173544,51.44426491,-0.026538499,3,SE6 4XT
104,Catford Bridge,537363,173595,51.44469463,-0.024821876,3,SE6 4RE
105,Centrale,532067,165785,51.37576747,-0.10388810400000001,"3,4,5,6",CR0 1XT
106,Chadwell Heath,547646,187611,51.56804688,0.12890111199999998,5,RM6 4BE
107,Chafford Hundred,558922,178770,51.4855545,0.28747570100000003,7,RM16 6QQ
108,Chalfont and Latimer,499610,197550,51.66790748,-0.561067777,8,HP7 9PR
109,Chalk Farm,528126,184421,51.54414909,-0.153733071,2,NW3 2BP
110,Chancery Lane,531096,181642,51.51849402,-0.11196202699999999,1,WC1V 6DR
111,Charing Cross,530234,180492,51.50835863,-0.124802938,1,WC2N 5HS
112,Charlton,541108,178387,51.48683499,0.030941645,3,SE7 7AB
113,Cheam,524444,163334,51.35546024,-0.21421128399999997,5,SM3 8RZ
114,Chelsfield,546944,164021,51.35626458,0.10898412,6,BR6 6EU
115,Chesham,496048,201650,51.70538002,-0.6114296570000001,9,HP5 1DH
116,Cheshunt,536652,202307,51.70287331,-0.023887415,8,EN8 9AQ
117,Chessington North,518415,164168,51.36424344,-0.300476129,6,KT9 2RT
118,Chessington South,517974,163319,51.35670453,-0.307089021,6,KT9 2DD
119,Chigwell,543835,193045,51.61785787,0.076179215,4,IG7 6NT
120,Chingford,539173,194628,51.63325337,0.009514326,5,E4 6AL
121,Chipstead,527689,158275,51.30927498,-0.169445869,6,CR5 3TD
122,Chislehurst,543205,169405,51.40559841,0.057491821,5,BR7 5NN
123,Chiswick,520438,177182,51.48078149,-0.267013322,3,W4 2QE
124,Chiswick Park,520352,178692,51.49437071,-0.267736922,3,W4 5NE
125,Chorleywood,502596,196092,51.65426593,-0.518333927,7,WD3 5ND
126,Church Street,532041,165555,51.37370656,-0.104346829,"3,4,5,6",CR0 1RN
127,City Thameslink,531688,181150,51.51393507,-0.103618449,1,EC4M 7JH
128,Clapham Common,529428,175291,51.46180367,-0.138314902,2,SW4 7AJ
129,Clapham High Street,529824,175709,51.46546951,-0.132464503,2,SW4 6DQ
130,Clapham Junction,527198,175520,51.46436678,-0.170315002,2,SW11 2QP
131,Clapham North,530003,175652,51.46491621,-0.12991006300000002,2,SW4 7TS
132,Clapham South,528782,174259,51.45267649,-0.14798407,"2,3",SW12 9DU
133,Clapton,534748,186531,51.56156909,-0.057489458,2,E5 9JP
134,Clock House,536367,169545,51.40854056,-0.040702092999999995,4,BR3 4PR
135,Cockfosters,528087,196424,51.65202448,-0.149916711,5,EN4 0DZ
136,Colindale,521295,189937,51.59523052,-0.250287544,4,NW9 5HR
137,Colliers Wood,526831,170436,51.41875919,-0.17741510000000002,3,SW19 2HR
138,Coombe Lane,535201,164089,51.35978931,-0.059531571,"3,4,5,6",CR0 5RF
139,Coulsdon South,529869,159056,51.31580094,-0.13790309,6,CR5 3EA
140,Coulsdon Town,530098,159802,51.32245295,-0.134347057,6,CR5 2JA
141,Covent Garden,530242,180982,51.51276023,-0.124506895,1,WC2E 9JT
142,Crayford,551479,174424,51.44854676,0.178502716,6,DA1 3PY
143,Crews Hill,530973,200109,51.68447461,-0.106844101,6,EN2 8AY
144,Cricklewood,524009,185907,51.55842267,-0.212547934,3,NW2 1HL
145,Crofton Park,536517,174739,51.45517929,-0.036546582,3,SE4 2RA
146,Crossharbour and London Arena,537896,179301,51.49583998,-0.014932813,2,E14 8AD
147,Crouch Hill,530586,187508,51.5713271,-0.117133285,3,N4 4AU
148,Croxley,507921,195395,51.64700528,-0.441603798,7,WD3 3DY
149,Crystal Palace,534120,170557,51.41817035,-0.072607233,"3,4",SE19 2AZ
150,Custom House,540679,180911,51.50962206,0.02577251,3,E16 3BX
151,Cutty Sark for Maritime Greenwich,538240,177764,51.48194447,-0.010581867,2,SE10 9SW
152,Cyprus,543324,180863,51.50852658,0.063840756,3,E6 5PH
153,Dagenham Dock,548900,183000,51.526287200000006,0.145031014,5,RM9 6RA
154,Dagenham East,550284,185033,51.54418734,0.165833432,5,RM10 8AA
155,Dagenham Heathway,549035,184665,51.54121179,0.14767972,5,RM9 5AN
156,Dalston Junction,533580,184778,51.54609372,-0.074994205,2,E8 3DL
157,Dalston Kingsland,533487,185062,51.54866782,-0.076226922,2,E8 2JS
158,Debden,544275,196133,51.645492,0.083801475,6,IG10 3TG
159,Denmark Hill,532697,176087,51.46820064,-0.09098787,2,SE5 8BB
160,Deptford,537165,177395,51.47889008,-0.02619632,2,SE8 3NU
161,Deptford Bridge,537466,176912,51.47447677,-0.022052429,"2,3",SE10 8BU
162,Devons Road,537603,182233,51.52225847,-0.018007753999999997,2,E3 3QX
163,Dollis Hill,522207,185132,51.55185059,-0.238797762,3,NW10 5NB
164,Drayton Green,516002,180998,51.51600468,-0.32961126,4,W13 0JX
165,Drayton Park,531426,185499,51.55307831,-0.1057702,2,N5 1NT
166,Dundonald Road,524741,170233,51.41739815,-0.207527113,"3,4,5,6",SW19 3QJ
167,Ealing Broadway,517920,180915,51.51486197,-0.302010381,3,W5 2NU
168,Ealing Common,518963,180426,51.51024866,-0.287151418,3,W5 3LD
169,Earls Court,525457,178480,51.49135667,-0.19431380899999998,"1,2",SW5 9QA
170,Earlsfield,526081,173030,51.44223881,-0.187272689,3,SW18 4SW
171,East Acton,521656,181159,51.51626341,-0.248112225,2,W12 0BP
172,East Croydon,532904,165801,51.375716100000005,-0.091863496,5,CR0 1LF
173,East Dulwich,533449,175375,51.46162558,-0.080436572,2,SE22 8EF
174,East Finchley,527242,189204,51.58733254,-0.164743886,3,N2 0NW
175,East Ham,542373,184255,51.53924616,0.051516293,"3,4",E6 2JA
176,East India,538729,180753,51.50868401,-0.002370332,"2,3",E14 9PS
177,East Putney,524387,174840,51.45887978,-0.21099823399999998,"2,3",SW15 6SN
178,Eastcote,511191,187627,51.57655182,-0.39682329899999996,5,HA5 1QZ
179,Eden Park,537396,167598,51.3907961,-0.026669716,5,BR3 3HQ
180,Edgware,519527,192009,51.61422962,-0.275093666,5,HA8 7AW
181,Edgware Road (Bakerloo),527026,181778,51.52064536,-0.17053955199999998,1,W2 1DY
182,Edgware Road (Circle/District/Hammersmith and City),527227,181711,51.51999804,-0.16766825400000002,1,NW1 5DH
183,Edmonton Green,534273,193590,51.6251157,-0.061639019,4,N9 9DX
184,Elephant and Castle,531940,179144,51.49584938,-0.100738715,"1,2",SE1 6LW
185,Elm Park,552446,185647,51.54912458,0.19725268199999998,6,RM12 4RW
186,Elmers End,535788,168389,51.39829111,-0.049463832,4,BR3 4EJ
187,Elmstead Woods,542247,170656,51.41708063,0.044229343,4,BR7 5EW
188,Elstree and Borehamwood,519098,196299,51.65287558,-0.279828619,6,WD6 3LS
189,Eltham,542690,174962,51.45566222,0.052329308,4,SE9 6UB
190,Elverson Road,537848,176243,51.46837219,-0.016816376,"2,3",SE8 4LA
191,Embankment,530406,180380,51.50731249,-0.12236733699999999,1,WC2N 6NS
192,Emerson Park,553971,187918,51.56911491,0.22022293399999998,6,RM11 2JR
193,Enfield Chase,532181,196607,51.65272211,-0.090704205,5,EN2 7AA
194,Enfield Lock,536437,198737,51.67084612,-0.02839107,6,EN3 6BW
195,Enfield Town,532970,196544,51.65197007,-0.079329922,5,EN1 1YB
196,Epping,546197,201552,51.69368617,0.11382555300000001,6,CM16 4HW
197,Epsom Downs,522805,159756,51.32365944,-0.23897022699999998,6,KT17 4JX
198,Erith,551075,178096,51.48164768,0.17426128899999999,6,DA8 1TY
199,Essex Road,532114,184132,51.54063331,-0.09636552599999999,2,N1 2SU
200,Euston,529587,182735,51.52866433,-0.133296472,1,NW1 2DU
201,Euston Square,529587,182735,51.52866433,-0.133296472,1,NW1 2BN
202,Ewell East,522571,162152,51.34524388,-0.24150300100000002,6,KT17 1QR
203,Ewell West,521473,162654,51.34999114,-0.257089133,6,KT17 1TU
204,Fairlop,544902,190655,51.59610954,0.090593279,4,IG6 3HD
205,Falconwood,544498,175394,51.4590858,0.07850969299999999,4,SE9 2RN
206,Farringdon,531585,181844,51.52019569,-0.10484306199999999,1,EC1M 6BY
207,Feltham,510601,173298,51.44787917,-0.409824481,6,TW13 4BY
208,Fenchurch Street,533434,180932,51.51156671,-0.078554153,1,EC3M 4AJ
209,Fieldway,537665,163212,51.35131701,-0.024503265,"3,4,5,6",CR0 0QA
210,Finchley Central,525232,190664,51.60090325,-0.193220637,4,N3 2RY
211,Finchley Road,526293,184703,51.547096200000006,-0.18005056100000003,2,NW6 3BS
212,Finchley Road and Frognal,526035,185033,51.5501195,-0.183651203,2,NW3 5HT
213,Finsbury Park,531385,186784,51.56463545,-0.105881486,2,N4 3JU
214,Forest Gate,540447,185322,51.54931612,0.024189092000000002,3,E7 0QH
215,Forest Hill,535398,172943,51.43930831,-0.053328504000000006,3,SE23 3HD
216,Fulham Broadway,525402,177244,51.4802609,-0.195544164,2,SW6 1BY
217,Fulwell,514832,171841,51.43394257,-0.349438525,6,TW2 5NY
218,Gallions Reach,543873,180935,51.50903414,0.071775394,3,E6 6FZ
219,Gants Hill,543266,188432,51.57655295,0.066084098,4,IG2 6UD
220,George Street,532432,165594,51.37396606,-0.098718105,"3,4,5,6",CRO 1LA
221,Gidea Park,552941,189306,51.58186575,0.205976981,6,RM2 6BX
222,Gipsy Hill,533321,171237,51.42446952,-0.083835168,3,SE19 1PL
223,Gloucester Road,526196,178848,51.49449956,-0.18354356,1,SW7 4SF
224,Golders Green,525199,187471,51.57221553,-0.194834559,3,NW11 7RN
225,Goldhawk Road,523131,179616,51.50207697,-0.22740400600000002,2,W12 8EG
226,Goodge Street,529505,181837,51.52061311,-0.13480769,1,W1T 2HF
227,Goodmayes,546462,187369,51.56618098,0.111729654,4,IG3 9UH
228,Gordon Hill,531889,197799,51.66350224,-0.09447330000000001,5,EN2 0QU
229,Gospel Oak,528263,185677,51.55540529,-0.151301033,2,NW5 1LT
230,Grange Hill,544963,192590,51.61348043,0.09227253,4,IG7 5QB
231,Grange Park,531753,195472,51.64262308,-0.09731442400000001,5,N21 1RE
232,Gravel Hill,536359,163536,51.35454326,-0.043121699000000006,"3,4,5,6",CR0 5BJ
233,Great Portland Street,528861,182174,51.5237888,-0.143961425,1,W1W 5PP
234,Green Park,529012,180283,51.50676048,-0.142477576,1,W1J 7BX
235,Greenford,514808,183861,51.54198007,-0.34587874,4,UB6 8PR
236,Greenwich,537956,177267,51.47754766,-0.014863083999999999,"2,3",SE10 8JQ
237,Grove Park,540702,172099,51.43043264,0.022598502000000003,4,SE12 0PW
238,Gunnersbury,519843,178401,51.49186341,-0.275164136,3,W4 5RP
239,Hackbridge,528582,165929,51.3778609,-0.153879198,4,SM6 7BJ
240,Hackney Central,534922,184943,51.54725744,-0.055589512,2,E8 1LL
241,Hackney Downs,534598,185137,51.54907809,-0.060185105,2,E8 1LA
242,Hackney Wick,537036,184588,51.54355841,-0.025259503,2,E9 5ER
243,Hadley Wood,526197,198199,51.66840287,-0.17658119,6,EN4 0EJ
244,Haggerston,533560,183953,51.53868473,-0.075595258,2,E8 4DY
245,Hainault,545124,191411,51.60284533,0.09410855,4,IG6 3BD
246,Hammersmith (District),523474,178483,51.49181978,-0.22286092899999999,2,W6 9YA
247,Hammersmith (Met.),523346,178665,51.49348335,-0.22464015699999998,2,W6 0ED
248,Hampstead,526408,185757,51.5565426,-0.17801456,2,NW3 1QG
249,Hampstead Heath,527344,185631,51.55519992,-0.164566183,3,NW3 2QD
250,Hampton,513299,169797,51.41587955,-0.37213525399999997,6,TW12 2HU
251,Hampton Court,515376,168332,51.40229388,-0.342757152,6,KT8 9AE
252,Hampton Wick,517407,169752,51.41464004,-0.31310361,6,KT1 4DQ
253,Hanger Lane,518506,182621,51.53007203,-0.292996146,3,W5 1DL
254,Hanwell,515426,180560,51.51218596,-0.33805188399999997,4,W7 3EB
255,Harlesden,520952,183367,51.53625833,-0.257495674,3,NW10 8UT
256,Harold Wood,554858,190626,51.59320222,0.234204073,6,RM3 0BL
257,Harringay,531395,188200,51.57735791,-0.105208253,3,N4 1RW
258,Harringay Green Lanes,531880,188189,51.57714589,-0.09821739199999999,3,N4 2NU
259,Harrington Road,535002,168535,51.39979057,-0.060699955,"3,4,5,6",SE25 4NF
260,Harrow and Wealdstone,515486,189508,51.59259463,-0.334252685,5,HA3 7RF
261,Harrow-on-the-Hill,515329,188035,51.57938812,-0.33700151700000003,5,HA1 1BB
262,Hatch End,513024,191370,51.6098285,-0.369178781,6,HA5 5LZ
263,Hatton Cross,509614,175369,51.466685299999995,-0.423380563,"5,6",TW6 3PF
264,Haydons Road,526012,171161,51.42545732,-0.188929359,3,SW19 8SL
265,Hayes,540003,165993,51.37573671,0.010142652,5,BR2 7EN
266,Hayes and Harlington,509717,179417,51.50304907,-0.420641904,5,UB3 4BX
267,Headstone Lane,513892,190574,51.60249963,-0.356907514,5,HA2 6NB
268,Heathrow Terminal 4,507939,174565,51.45978043,-0.44772959,6,TW6 3AA
269,Heathrow Terminal 5,504934,175642,51.47002543,-0.490647503,6,TW6 2GA
270,Heathrow Terminals 1 2 3,507587,175838,51.471289399999996,-0.452407226,6,TW6 1EB
271,Hendon,522143,188271,51.58007498,-0.238630521,"3,4",NW4 4PT
272,Hendon Central,522959,188631,51.58313305,-0.22673414,"3,4",NW4 3AS
273,Herne Hill,531934,174486,51.45399137,-0.10256290800000001,"2,3",SE24 0JW
274,Heron Quays,537386,180127,51.50338657,-0.021953532,2,E14 4JH
275,High Barnet,525027,196310,51.65168825,-0.19416538,5,EN5 5RP
276,High Street Kensington,525622,179527,51.50072945,-0.191566058,1,W8 5SA
277,Highams Park,538581,191841,51.60835599,-0.000135286,4,E4 9LA
278,Highbury and Islington,531562,184770,51.54649551,-0.10408214,2,N1 1SE
279,Highgate,528503,188158,51.57764662,-0.146934862,3,N6 5BH
280,Hillingdon,507567,185015,51.55377752,-0.449897993,6,UB10 9NR
281,Hither Green,538997,174497,51.45240172,-0.000970912,3,SE13 5NF
282,Holborn,530553,181488,51.51723574,-0.119840507,1,WC2B 6AA
283,Holland Park,524564,180215,51.50714648,-0.206557778,2,W11 3RB
284,Holloway Road,530930,185457,51.5528161,-0.11293569699999999,2,N7 8HS
285,Homerton,536108,184901,51.54659545,-0.038512347,2,E9 5SD
286,Honor Oak Park,536002,174221,51.45064824,-0.044153121,3,SE23 3LE
287,Hornchurch,553931,186274,51.55435511,0.21892699699999998,6,RM12 6LS
288,Hornsey,530911,189202,51.58647485,-0.11181563800000001,3,N8 8SE
289,Hounslow,513902,174998,51.46250482,-0.36179625600000004,5,TW3 3DL
290,Hounslow Central,513592,175928,51.47092577,-0.36595812899999997,4,TW3 1JG
291,Hounslow East,514327,176254,51.47370789,-0.355275322,4,TW3 4AB
292,Hounslow West,512215,176140,51.47310572,-0.385707629,5,TW3 3DH
293,Hoxton,533582,183142,51.53139161,-0.075585647,"1,2",E2 8HR
294,Hyde Park Corner,528330,179801,51.50258401,-0.152474114,1,SW1X 7LY
295,Ickenham,508127,185811,51.56082505,-0.441579513,6,UB10 8PD
296,Ilford,543501,186501,51.55914224,0.06868519099999999,4,IG1 4DU
297,Imperial Wharf,526299,176674,51.47493893,-0.182837505,2,SW6 2HA
298,Island Gardens,538228,178432,51.48795009,-0.010493303,2,E14 3FA
299,Isleworth,515570,176430,51.47503742,-0.337328765,4,TW7 4BX
300,Iver,503729,179898,51.50850213,-0.506740434,None,SL0 9AU
301,Kenley,532400,160100,51.32460031,-0.101219713,6,CR8 5JA
302,Kennington,531660,178337,51.48866246,-0.10507061300000001,2,SE11 4JQ
303,Kensal Green,523241,182784,51.53052421,-0.224713384,2,NW10 5JT
304,Kensal Rise,523501,183201,51.53421506,-0.22082097899999997,2,NW10 3NT
305,Kensington (Olympia),524324,179178,51.4978797,-0.210379242,2,W14 0NE
306,Kent House,535999,170000,51.41271766,-0.045815552999999995,4,BR3 1HY
307,Kentish Town,529029,185096,51.55000952,-0.140471264,2,NW5 2AA
308,Kentish Town West,528603,184700,51.54654797,-0.14675641,2,NW5 3LD
309,Kenton,516833,188304,51.58149628,-0.315216867,4,HA3 0XS
310,Kew Bridge,518898,178172,51.49000462,-0.288846495,3,TW8 0EF
311,Kew Gardens,519173,176708,51.47678914,-0.285381011,"3,4",TW9 3PZ
312,Kidbrooke,540999,175697,51.46269019,0.028300238999999998,3,SE3 9NF
313,Kilburn,524589,184644,51.54694444,-0.204632719,2,NW6 7QL
314,Kilburn High Road,525553,183591,51.53726774,-0.191113106,2,NW6 7QL
315,Kilburn Park,525361,183349,51.53513554,-0.193966057,2,NW6 5AD
316,King George V,543231,180135,51.50200861,0.062206214,3,E16 2JF
317,King Henry's Drive,537978,162558,51.3453641,-0.020264756999999998,"3,4,5,6",CR0 0LH
318,King's Cross,530312,182991,51.53079819,-0.12275642099999999,1,N1 9AL
319,Kings Cross St. Pancras,530236,182935,51.53031246,-0.12387213,1,N1 9AL
320,Kingsbury,519361,188739,51.58487652,-0.278601608,4,NW9 9EG
321,Kingston,518244,169549,51.41264176,-0.30114104,6,KT1 1UJ
322,Kingswood,524816,156585,51.29472314,-0.21123322600000002,6,KT20 6EN
323,Knightsbridge,527765,179650,51.5013549,-0.160664486,1,SW3 1ED
324,Knockholt,548499,162896,51.34575194,0.130831039,6,TN14 7HR
325,Ladbroke Grove,524284,181328,51.51721067,-0.210198172,2,W10 6HJ
326,Ladywell,537716,174884,51.45619214,-0.019244401,3,SE13 7XB
327,Lambeth North,531165,179489,51.49912995,-0.111768261,1,SE1 7XG
328,Lancaster Gate,526711,180796,51.51189094,-0.17542992899999998,1,W2 4QH
329,Langdon Park,537807,181863,51.51888394,-0.015213798999999998,2,E14 6NW
330,Langley,501299,179800,51.50806166,-0.541770573,None,SL3 6DB
331,Latimer Road,523789,180954,51.5139581,-0.21745966600000002,2,W10 6SZ
332,Lea Bridge,536175,187133,51.56663626,-0.036683158,3,E10 7PG
333,Lebanon Road,533385,165756,51.375199,-0.084973649,"3,4,5,6",CR0 6SF
334,Lee,540002,174197,51.44945852,0.013364692,3,SE12 9JG
335,Leicester Square,529987,180812,51.51129118,-0.128242148,1,WC2H 0AP
336,Lewisham,538163,175863,51.46488071,-0.012432701,"2,3",SE13 7RY
337,Leyton,538295,186244,51.55813227,-0.006465332,3,E10 5PS
338,Leyton Midland Road,538150,187490,51.56936424,-0.008066347,3,E10 6JT
339,Leytonstone,539345,187429,51.56852229,0.009140452,"3,4",E11 1HE
340,Leytonstone High Road,539298,186903,51.56380734,0.008254469,3,E11 4RE
341,Limehouse,536150,181087,51.51231216,-0.039380078,2,E14 7JD
342,Liverpool Street,533160,181596,51.51759826,-0.08224962200000001,1,EC2M 7PR
343,Lloyd Park,533711,164549,51.36427554,-0.080746273,"3,4,5,6",CR0 5RA
344,London Bridge,532937,180152,51.50467435,-0.086005598,1,SE1 2SW
345,London City Airport,542231,180294,51.50368966,0.047872715,3,E16 2DS
346,London Fields,534795,184212,51.54071884,-0.05769968599999999,2,E8 3PH
347,Loughborough Junction,531902,175897,51.4666789,-0.10249734199999999,2,SW9 8SA
348,Loughton,542314,195641,51.64157048,0.055279079,6,IG10 4PD
349,Lower Sydenham,536831,171372,51.42484684,-0.033330342,4,SE26 5AU
350,Maida Vale,525967,182792,51.52999506,-0.185432647,2,W9 1JS
351,Maidenhead,488724,180745,51.51866861,-0.722674941,None,SL6 1EW
352,Malden Manor,521101,166497,51.38460954,-0.261120416,4,KT3 5PN
353,Manor House,532074,187482,51.57074714,-0.09568497599999999,"2,3",N4 1BZ
354,Manor Park,541929,185757,51.55285435,0.04572387,"3,4",E12 5EP
355,Mansion House,532347,180962,51.51209175,-0.094197658,1,EC4N 6JD
356,Marble Arch,527875,181056,51.51396549,-0.158571216,1,W1C 2JS
357,Maryland,539175,184881,51.54566827,0.005681654,3,E15 1SA
358,Marylebone,527510,181985,51.52239667,-0.163492564,1,NW1 6JJ
359,Maze Hill,539194,177909,51.48301366,0.003204897,3,SE10 9XG
360,Merton Park,525182,169798,51.41339161,-0.201342031,"3,4,5,6",SW19 3HA
361,Mile End,536577,182545,51.52531097,-0.032666084,2,E3 4DH
362,Mill Hill Broadway,521300,191900,51.61287113,-0.249537068,4,NW7 2JU
363,Mill Hill East,524057,191460,51.60831664,-0.209895713,4,NW7 1BS
364,Mitcham,527345,168082,51.39748861,-0.170871647,"3,4,5,6",CR4 4BD
365,Mitcham Eastfields,528488,169323,51.40838391,-0.154001719,3,CR4 2ND
366,Mitcham Junction,528292,167611,51.39304257,-0.15743664400000001,4,CR4 4HN
367,Monument,532907,180814,51.51063042,-0.086188314,1,EC4R 9AA
368,Moor Park,508563,193509,51.62993067,-0.432913027,"6,7",HA6 2JQ
369,Moorgate,532688,181677,51.51843714,-0.08901768800000001,1,EC2M 6TX
370,Morden,525664,168563,51.40218596,-0.19485198199999998,4,SM4 5AZ
371,Morden Road,525788,169310,51.40887189,-0.19280567699999998,"3,4,5,6",SW19 3BX
372,Morden South,525301,167900,51.39630770000001,-0.200301562,4,SM4 5AN
373,Mornington Crescent,529193,183359,51.53436222,-0.13874435,2,NW1 2JA
374,Mortlake,520458,175779,51.46816794,-0.26720331399999997,3,SW14 8LN
375,Motspur Park,522581,167724,51.39531963,-0.239439746,4,KT3 6JJ
376,Mottingham,542600,173197,51.43982498,0.050324202,4,SE9 4EN
377,Mudchute,537908,178789,51.49123619,-0.014959945,2,E14 9UW
378,Neasden,521415,185422,51.55462772,-0.250115045,3,NW10 1PH
379,New Addington,538187,162255,51.34259051,-0.017383327,"3,4,5,6",CR0 0DE
380,New Barnet,526502,195996,51.64853677,-0.172969714,5,EN5 1QT
381,New Beckenham,536718,170463,51.41670555,-0.035304949,4,BR3 1QW
382,New Cross,536750,177110,51.47642942,-0.032278812000000004,2,SE14 6LD
383,New Cross Gate,536250,176967,51.47526493,-0.039529052,2,SE14 6AR
384,New Eltham,544005,172999,51.43769066,0.070444618,4,SE9 2AB
385,New Malden,521392,168612,51.40355591,-0.256218106,4,KT3 4PX
386,New Southgate,528672,192218,51.61409367,-0.143009776,4,N11 1QH
387,Newbury Park,544947,188378,51.57563836,0.09030315800000001,4,IG2 7RN
388,Nine Elms,530058,177332,51.48000126,-0.128500984,1,None
389,Norbiton,519424,169495,51.41190935,-0.284199948,5,KT2 7AZ
390,Norbury,530650,169690,51.4111885,-0.12279940199999999,3,SW16 3RW
391,North Acton,520831,181937,51.52343243,-0.259729528,"2,3",W3 6UP
392,North Dulwich,532950,174567,51.45448181,-0.087918681,"2,3",SE21 7BX
393,North Ealing,518816,181243,51.51762229,-0.288993553,3,W5 3AF
394,North Greenwich,539168,179827,51.50025515,0.003586259,"2,3",SE10 0PH
395,North Harrow,513540,188578,51.5846313,-0.36263299299999996,5,HA2 7SR
396,North Sheen,519132,175442,51.46541961,-0.286397467,3,TW9 4QA
397,North Wembley,517663,186198,51.56239629,-0.30394821899999996,4,HA0 3NT
398,Northfields,517051,179296,51.50049167,-0.315064819,3,W13 9QU
399,Northolt,513228,184519,51.548212899999996,-0.368440596,5,UB5 4AA
400,Northolt Park,513829,185579,51.55761905,-0.35943419600000004,5,UB5 4XE
401,Northumberland Park,534861,191035,51.60201573,-0.05413202599999999,3,N17 0HY
402,Northwick Park,516634,187967,51.57850869,-0.31819939199999997,4,HA3 0AT
403,Northwood,509236,191441,51.61121361,-0.423837787,6,HA6 2XL
404,Northwood Hills,510267,190305,51.60080265,-0.40931135799999996,6,HA6 1NZ
405,Norwood Junction,534001,168193,51.39695432,-0.075209857,4,SE25 5AG
406,Notting Hill Gate,525296,180481,51.50937534,-0.19592161800000002,"1,2",W11 3HT
407,Nunhead,535293,175975,51.46657998,-0.053679742999999995,2,SE15 3XE
408,Oakleigh Park,527001,194800,51.63767636,-0.166194967,4,EN5 1BU
409,Oakwood,529349,195968,51.64763796,-0.13185354,5,N14 4UT
410,Ockendon,559004,182828,51.52198965,0.290483475,7,RM15 6PD
411,Old Street,532764,182474,51.52558147,-0.087622958,1,EC1V 9NR
412,Orpington,545500,165900,51.37352005,0.089028901,6,BR6 0SX
413,Osterley,514529,177094,51.48121681,-0.352096096,4,TW7 4PU
414,Oval,531108,177516,51.4814126,-0.11332107599999999,2,SE11 4PP
415,Oxford Circus,529102,181227,51.515223399999996,-0.140836171,1,W1C 2JS
416,Paddington,526680,181185,51.51539379,-0.175736752,1,W2 1RH
417,Palmers Green,530925,192798,51.61878675,-0.1102725,4,N13 4PN
418,Park Royal,519074,182274,51.52683402,-0.28492891800000003,3,W5 3EL
419,Parsons Green,525029,176645,51.47496015,-0.201124492,2,SW6 4HU
420,Peckham Rye,534152,176271,51.46951136,-0.069983553,2,SE15 5DQ
421,Penge East,535374,170791,51.41997535,-0.054495265,4,SE20 7BQ
422,Penge West,534952,170567,51.41806293,-0.060645765,4,SE20 8NU
423,Perivale,516404,183270,51.53634182,-0.32307042199999997,4,UB6 7NP
424,Petts Wood,544440,167548,51.38859899,0.07448003,5,BR5 1LZ
425,Phipps Bridge,526534,168717,51.40337673,-0.182296789,"3,4,5,6",CR4 3QN
426,Piccadilly Circus,529612,180625,51.50969675,-0.133711597,1,W1J 9HS
427,Pimlico,529711,178386,51.48955286,-0.133108258,1,SW1V 2JA
428,Pinner,512233,189409,51.59236168,-0.38122379,5,HA5 5LZ
429,Plaistow,540058,183305,51.53128834,0.017780642,3,E13 0DY
430,Plumstead,544803,178820,51.48979242,0.084299617,4,SE18 7EA
431,Ponders End,536097,195599,51.64273069,-0.034525105,5,EN3 4LA
432,Pontoon Dock,541226,180102,51.50221622,0.033325707,3,E16 2SB
433,Poplar,537698,180603,51.50758807,-0.017275493,2,E14 0DS
434,Preston Road,518260,187292,51.57210373,-0.29497201300000003,4,HA3 0PS
435,Prince Regent,541215,180905,51.50943455,0.033488574,3,E16 3HE
436,Pudding Mill Lane,537930,183585,51.53432785,-0.012768512,"2,3",E15 2PH
437,Purfleet,555417,178174,51.48117301,0.23677483600000002,7,RM16 1PL
438,Purley,531500,161497,51.33736355,-0.11361351800000001,6,CR8 2AP
439,Purley Oaks,532503,162594,51.34698934,-0.098815333,6,CR2 0ND
440,Putney,523992,175061,51.46095253,-0.216603374,"2,3",SW15 1RT
441,Putney Bridge,524476,175842,51.46786534,-0.209365417,2,SW6 3UH
442,Queens Park,524612,183239,51.53431265,-0.20479814899999998,2,NW6 6HJ
443,Queens Road Peckham,535015,176825,51.47428471,-0.057354979,2,SE15 2JR
444,Queensbury,518802,189728,51.59388298,-0.286331597,4,HA8 5NP
445,Queenstown Road,528763,176738,51.47495913,-0.147355312,2,SW8 3RX
446,Queensway,525883,180615,51.51044923,-0.187419903,1,W2 4SS
447,Rainham,552097,182099,51.51734052,0.190691975,6,RM13 9YH
448,Ravensbourne,538699,170201,51.41387038,-0.006937815999999999,4,BR3 5HE
449,Ravenscourt Park,522558,178711,51.49406798,-0.235969233,2,W6 0UG
450,Rayners Lane,512979,187538,51.57539673,-0.37106081399999996,5,HA5 5EG
451,Raynes Park,523206,169303,51.40937535,-0.22991293899999998,4,SW20 8NE
452,Reading,471527,173813,51.45878616,-0.971877676,None,RG1 1LZ
453,Rectory Road,534001,186199,51.55876348,-0.068385665,2,N16 7QB
454,Redbridge,541833,188371,51.57636692,0.045394044,4,IG4 5BG
455,Reedham,530835,160821,51.33144171,-0.123402624,6,CR8 2DG
456,Reeves Corner,531895,165726,51.375277200000006,-0.10637977800000001,"3,4,5,6",CR0 1XP
457,Regents Park,528765,182174,51.52381067,-0.145344411,1,NW1 5HA
458,Richmond,518072,175174,51.46323289,-0.30173913399999996,4,TW9 2AZ
459,Rickmansworth,505717,194605,51.64032301,-0.47368458399999996,7,WD3 1QY
460,Riddlesdown,532497,161001,51.33267483,-0.099493667,6,CR8 1HN
461,Roding Valley,541612,192882,51.61695645,0.044026207000000005,4,IG9 6LN
462,Romford,551377,188455,51.57464159,0.183055272,6,RM1 1SX
463,Rotherhithe,535239,179870,51.5015945,-0.052966295999999996,2,SE16 4LF
464,Royal Albert,542029,180823,51.50849387,0.045177145,3,E16 2QD
465,Royal Oak,525764,181485,51.51829435,-0.188823674,2,W2 6ET
466,Royal Victoria,540139,180833,51.50905524,0.017965413,3,E16 1DE
467,Ruislip,509510,187102,51.57216192,-0.421234926,6,HA4 8LD
468,Ruislip Gardens,510367,185763,51.55996018,-0.409294111,5,HA4 6LG
469,Ruislip Manor,510088,187258,51.57345157,-0.412849354,6,HA4 9AA
470,Russell Square,530207,182122,51.52301304,-0.12459019800000001,1,WC1N 1LG
471,Sanderstead,532855,162743,51.34824625,-0.0937085,6,CR2 0PL
472,Sandilands,533869,165749,51.37502227,-0.07802659,"3,4,5,6",CR0 5PN
473,Selhurst,532993,167636,51.39218577,-0.08989903699999999,4,SE25 6LL
474,Seven Kings,545401,187095,51.56399335,0.096319575,4,IG3 8RE
475,Seven Sisters,533646,188927,51.58336216,-0.072466823,3,N15 5LA
476,Shadwell,534936,180942,51.51130016,-0.056919207,2,E1 2QE
477,Shenfield,561356,195022,51.6308731,0.329952264,7,CM15 8JD
478,Shepherds Bush,523741,179904,51.50453215,-0.218519159,2,W12 8LH
479,Shepherds Bush Market,523121,180039,51.50588071,-0.227400493,2,W12 7JD
480,Shoreditch High Street,533501,182258,51.52346682,-0.077087425,1,E1 6AW
481,Shortlands,539399,169300,51.40560237,0.0027675440000000003,4,BR2 0JA
482,Sidcup,546300,172698,51.43439846,0.10331535900000001,5,DA15 7AW
483,Silver Street,533544,192472,51.61524248,-0.072589742,4,N18 1QX
484,Slade Green,552250,176584,51.46774766,0.190518388,6,DA8 2NX
485,Sloane Square,528080,178657,51.49235976,-0.15648885699999998,1,SW1W 8BB
486,Slough,497838,180157,51.51187985,-0.591524846,None,SL1 1XW
487,Snaresbrook,540161,188828,51.58089127,0.021463927999999997,4,E11 1QE
488,South Acton,520166,179279,51.49968583,-0.270215208,3,W3 0DS
489,South Bermondsey,535156,178319,51.48767662,-0.054754820999999995,2,SE16 2PL
490,South Croydon,532896,164358,51.3627502,-0.092517363,5,CR2 7PA
491,South Ealing,517605,179437,51.50164402,-0.307040245,3,W5 4QB
492,South Greenford,515462,182991,51.53402756,-0.33673748200000003,4,UB6 2WE
493,South Hampstead,526425,184081,51.54147685,-0.17837120000000004,2,NW8 0DJ
494,South Harrow,514334,186376,51.56468017,-0.351893971,5,HA2 8HN
495,South Kensington,526865,178817,51.49407137,-0.173923023,1,SW7 2NB
496,South Kenton,517350,187153,51.57104445,-0.308142977,4,HA9 8QT
497,South Merton,524917,168662,51.40324056,-0.20555030100000002,4,SW20 9JT
498,South Quay,537636,179853,51.50086361,-0.018460693,2,E14 9SH
499,South Ruislip,511080,185437,51.5568903,-0.39911591,5,HA4 6TP
500,South Tottenham,533697,188599,51.58040259,-0.071855957,3,N15 6ND
501,South Wimbledon,525828,170033,51.41536071,-0.19197454600000002,"3,4",SW19 1DE
502,South Woodford,540577,190026,51.59155262,0.027943078,4,E18 1JJ
503,Southall,512620,179804,51.50595691,-0.37871119,4,UB2 4AA
504,Southbury,534803,196199,51.64843373,-0.052983311,5,EN3 4HW
505,Southfields,524730,173291,51.44488331,-0.206609386,3,SW18 5RJ
506,Southgate,529675,194278,51.63237585,-0.127770047,4,N14 5BH
507,Southwark,531566,180025,51.50385362,-0.10579494,1,SE1 8NW
508,St Helier,525408,167191,51.38991216,-0.199014592,4,SM4 6SF
509,St James Street,536402,188694,51.58060866,-0.032804562,3,E17 7PJ
510,St Johns,537400,176298,51.46897529,-0.023240662000000002,2,SE8 4EW
511,St Margarets,516732,174250,51.45520599,-0.32132424800000003,4,TW1 2LH
512,St Mary Cray,546698,168298,51.39475941,0.10721789999999999,6,BR5 3SN
513,St Pancras,530122,182959,51.5305544,-0.12550578199999998,1,NW1 2QP
514,St. James's Park,529629,179503,51.49960979,-0.133878755,1,SW1H 0BD
515,St. Johns Wood,526742,183352,51.53485441,-0.17406484,2,NW8 6DN
516,St. Pauls,532105,181261,51.514835299999994,-0.09757100099999999,1,EC2V 6AA
517,Stamford Brook,521913,178738,51.49444997,-0.24524631,2,W6 0SB
518,Stamford Hill,533381,187928,51.5744476,-0.076668342,3,N16 5AG
519,Stanmore,517574,192569,51.61967344,-0.303099293,5,HA7 4PD
520,Star Lane,539148,182091,51.52060425,0.004191003,3,E16 4SR
521,Stepney Green,535566,182149,51.52199583,-0.047382522999999996,2,E1 4AQ
522,Stockwell,530473,176470,51.47215926,-0.122846304,2,SW9 9AE
523,Stoke Newington,533710,186845,51.56463761,-0.072335395,2,N16 6YA
524,Stonebridge Park,519690,184197,51.54398655,-0.27540044199999997,3,NW10 0RW
525,Stoneleigh,522021,164155,51.36336405,-0.248709657,5,KT17 2JA
526,Stratford,538533,184421,51.54169258,-0.0037516409999999996,3,E15 1AZ
527,Stratford High Street,538729,184032,51.53814895,-0.001080356,3,E15 3PA
528,Stratford International,538175,184758,51.54480853,-0.008778434,3,E15 2LZ
529,Strawberry Hill,515500,172502,51.43974783,-0.33961773100000003,5,TW1 4PP
530,Streatham,529946,171303,51.42584586,-0.132325497,3,SW16 6HP
531,Streatham Common,529729,170534,51.41898467,-0.135726165,3,SW16 5NT
532,Streatham Hill,530233,172714,51.43846037,-0.12768148099999999,3,SW2 4PA
533,Sudbury and Harrow Road,516853,185300,51.55449378,-0.31592624199999997,4,HA0 2HA
534,Sudbury Hill,515427,185584,51.55733956,-0.336392115,4,HA1 3RA
535,Sudbury Hill Harrow,515490,185697,51.55834227,-0.335446693,4,HA1 3RJ
536,Sudbury Town,516832,184955,51.55139744,-0.316343486,4,HA0 2LA
537,Sundridge Park,540599,170200,51.413393799999994,0.020365109,4,BR1 3TR
538,Surbiton,518070,167315,51.39259953,-0.30438456,6,KT6 4PE
539,Surrey Quays,535641,178954,51.49326686,-0.047529987999999995,2,SE16 2UE
540,Sutton,526028,163823,51.35950614,-0.19130201100000002,5,SM1 1JA
541,Sutton Common,525593,165598,51.37555469,-0.196919912,4,SM1 3HY
542,Swiss Cottage,526611,184259,51.54303485,-0.175626604,2,NW3 6HY
543,Sydenham,535311,171609,51.42734125,-0.055088671,3,SE26 5EU
544,Sydenham Hill,533548,172145,51.43257589,-0.080230208,3,SE21 7HW
545,Syon Lane,516306,177163,51.48147469,-0.326495035,4,TW7 5NT
546,Tadworth,523097,156199,51.29162786,-0.23600801600000001,6,KT20 5SP
547,Taplow,491579,181340,51.52356196,-0.6813848790000001,None,SL6 0NU
548,Tattenham Corner,522593,158140,51.30918131,-0.242566273,6,KT18 5PR
549,Teddington,516019,170817,51.4244975,-0.332705337,6,TW11 9AA
550,Temple,530995,180810,51.51104061,-0.11372575,1,WC2R 2PH
551,Thames Ditton,515721,166818,51.38861607,-0.338292838,6,KT7 0PA
552,Theobalds Grove,535933,201119,51.69237259,-0.034748134,7,EN8 7BG
553,Therapia Lane,530290,166843,51.38568579,-0.129017107,"3,4,5,6",CR0 3DD
554,Theydon Bois,545509,199180,51.67255208,0.102890736,6,CM16 7EU
555,Thornton Heath,532242,168317,51.39848108,-0.100433165,4,CR7 8RX
556,Tolworth,519834,165603,51.37684332,-0.279620115,5,KT5 9NU
557,Tooting,527969,170591,51.41989663,-0.16100247199999998,3,SW17 9JR
558,Tooting Bec,528015,172366,51.43583806,-0.159700492,3,SW17 9AH
559,Tooting Broadway,527415,171373,51.42704914,-0.168684527,3,SW17 0SU
560,Tottenham Court Road,529774,181354,51.51621087,-0.131110439,1,W1D 2DA
561,Tottenham Hale,534483,189465,51.58799778,-0.060187823,3,N17 9LR
562,Totteridge and Whetstone,526111,193951,51.63024672,-0.179354263,4,N20 9QP
563,Tower Gateway,533725,180809,51.51039264,-0.074409877,1,EC3N 1JL
564,Tower Hill,533566,180805,51.51039427,-0.076701198,1,EC3N 4DJ
565,Tufnell Park,529200,185816,51.5564408,-0.137742175,2,N19 5QB
566,Tulse Hill,531797,172903,51.43979743,-0.105122509,3,SE27 9BW
567,Turkey Street,535129,198903,51.67265366,-0.047229930999999996,6,EN3 5TT
568,Turnham Green,521267,178804,51.49518194,-0.254524568,2,W4 1LR
569,Turnpike Lane,531524,189650,51.59035813,-0.102805041,3,N15 3NX
570,Twickenham,516221,173687,51.45025095,-0.32886022600000003,5,TW1 1BD
571,Twyford,479041,175787,51.47553394,-0.863307037,None,RG10 9NA
572,Upminster,556167,186833,51.55876336,0.251400801,6,RM14 2TD
573,Upminster Bridge,555002,186681,51.557718799999996,0.23454188899999998,6,RM12 6PL
574,Upney,545844,184260,51.53840565,0.10153174400000001,4,IG11 9LS
575,Upper Holloway,529778,186630,51.563623299999996,-0.129109364,2,N19 4DJ
576,Upper Warlingham,534100,158383,51.30877225,-0.077481662,6,CR3 0EP
577,Upton Park,541204,183931,51.5366282,0.03454184,3,E13 9AP
578,Uxbridge,505698,184161,51.54645451,-0.47710156,6,UB8 1JZ
579,Vauxhall,530366,177978,51.48573579999999,-0.123829953,"1,2",SW8 1SR
580,Victoria,528941,179131,51.49642395,-0.143920706,1,SW1E 5JX
581,Waddon,531151,164828,51.36737926,-0.117394077,5,CR0 4NA
582,Waddon Marsh,531082,165906,51.37708295,-0.117987465,"3,4,5,6",CR0 4XT
583,Wallington,528841,163985,51.36033154,-0.150863835,5,SM6 0DZ
584,Waltham Cross,536520,200343,51.68525726,-0.026564257,7,EN8 7LU
585,Walthamstow Central,537286,188986,51.58301811,-0.019940545,3,E17 7LP
586,Walthamstow Queens Road,537020,188815,51.58154619,-0.023843943,3,E17 7QZ
587,Wandle Park,531422,165505,51.37340072,-0.11325332099999999,"3,4,5,6",CR0 4JS
588,Wandsworth Common,527719,173530,51.4463656,-0.163536981,3,SW12 8NL
589,Wandsworth Road,529354,176226,51.4702232,-0.139037676,2,SW8 4PA
590,Wandsworth Town,525985,175119,51.46103408,-0.187910038,2,SW18 1SU
591,Wanstead,540685,188176,51.57490215,0.028760472000000002,4,E11 2NT
592,Wanstead Park,540592,185600,51.55177808,0.026389943,3,E7 0HU
593,Wapping,535030,180170,51.50434032,-0.055860815,2,E1W 3PA
594,Warren Street,529253,182272,51.52457999,-0.138278332,1,NW1 3AA
595,Warwick Avenue,526158,182030,51.52310444,-0.18295329300000002,2,W9 2PT
596,Waterloo,531050,179933,51.50314664,-0.11325925199999999,1,SE1 7NY
597,Waterloo East,531332,180054,51.50416861,-0.10915363800000001,1,SE1 8NH
598,Watford,509579,196610,51.657605100000005,-0.41727000700000005,7,WD18 7LE
599,Watford High Street,511360,196098,51.6526537,-0.39169672899999997,8,WD17 2EG
600,Watford Junction,511023,197340,51.66388301,-0.396171957,None,WD17 1ET
601,Wellesley Road,532511,165752,51.37536754,-0.097524909,"3,4,5,6",CR0 2DD
602,Welling,546096,176073,51.46477709,0.10177503800000001,4,DA16 3AT
603,Wembley Central,518214,185039,51.55186478,-0.296392327,4,HA9 6AG
604,Wembley Park,519373,186341,51.56332246,-0.279242553,4,HA9 9AA
605,Wembley Stadium,518924,185366,51.55465457,-0.286046447,4,HA9 8BQ
606,West Acton,519394,181273,51.51777015,-0.280657175,3,W3 6UP
607,West Brompton,525383,178030,51.48732891,-0.195538812,2,SW5 9JX
608,West Croydon,532188,166098,51.37855217,-0.10203429300000001,5,CR0 2TA
609,West Drayton,506124,180122,51.51007122,-0.472176097,6,UB7 9DY
610,West Dulwich,532798,173053,51.44091182,-0.090672676,3,SE21 8HN
611,West Ealing,516690,180749,51.51362521,-0.319782955,3,W13 0NQ
612,West Finchley,525507,191601,51.60926273,-0.18891711,4,N3 1NT
613,West Ham,539202,182974,51.52852552,0.0053173940000000005,3,E15 3BN
614,West Hampstead,525524,184726,51.54747433,-0.19112658600000001,2,NW6 2LX
615,West Hampstead Thameslink,525423,184852,51.54862912,-0.19253752,2,NW6 1XJ
616,West Harrow,514163,187957,51.57892424,-0.35384669700000004,5,HA1 4HE
617,West India Quay,537471,180505,51.50676266,-0.020582447,2,E14 4ED
618,West Kensington,524635,178321,51.49010936,-0.206203695,2,W14 9NL
619,West Norwood,531956,171955,51.43124112,-0.103189135,3,SE27 0HS
620,West Ruislip,508364,186791,51.56958787,-0.437860146,6,HA4 7WD
621,West Silvertown,540455,180155,51.50288443,0.022246047,3,E16 2AT
622,West Sutton,525081,164539,51.36615014,-0.204644548,5,SM1 2EH
623,West Wickham,538266,166563,51.3812842,-0.01457633,5,BR4 0PY
624,Westbourne Park,524920,181764,51.52098884,-0.200882515,2,W11 1AB
625,Westcombe Park,540199,178103,51.484508899999994,0.0177457,3,SE3 7EQ
626,Westferry,537064,180814,51.50963815,-0.026323137000000003,2,E14 8AD
627,Westminster,530240,179718,51.50140159,-0.12500207900000002,1,SW1A 2JR
628,White City,523296,180750,51.51223244,-0.224631931,2,W12 7RH
629,White Hart Lane,533693,191340,51.60503477,-0.070870327,3,N17 7RP
630,Whitechapel,534738,181859,51.51958779,-0.059420485,2,E1 1BY
631,Whitton,514220,173568,51.44958819,-0.357682061,5,TW2 7LG
632,Whyteleafe,533842,158505,51.30992932,-0.081135165,6,CR3 0AD
633,Whyteleafe South,534169,157797,51.3034898,-0.076712515,6,CR3 0BD
634,Willesden Green,523350,184884,51.54937329,-0.22240760399999998,"2,3",NW2 4QT
635,Willesden Junction,521905,182942,51.53223396,-0.243909143,3,NW10 4RA
636,Wimbledon,524791,170647,51.42110784,-0.20666283600000002,3,SW19 1PS
637,Wimbledon Chase,524306,169347,51.40953093,-0.21408977,3,SW20 8DB
638,Wimbledon Park,525274,172158,51.43458095,-0.199186275,3,SW19 7DZ
639,Winchmore Hill,531529,194494,51.63388686,-0.10091693300000001,4,N21 3NG
640,Wood Green,531038,190427,51.59745373,-0.10952658900000001,3,N22 8HH
641,Wood Lane,523314,180464,51.50965819,-0.224472609,2,W12 7DS
642,Wood Street,538521,189426,51.58666994,-0.001953898,4,E17 3NZ
643,Woodford,540952,191778,51.60720184,0.034056202,4,IG8 7QE
644,Woodgrange Park,541861,185332,51.54905254,0.044572495999999996,"3,4",E7 8AA
645,Woodmansterne,528720,159385,51.31901858,-0.154262129,6,CR5 3HS
646,Woodside,534716,167115,51.38709768,-0.06534717799999999,"3,4,5,6",SE25 5DP
647,Woodside Park,525725,192564,51.6178684,-0.185425505,4,N12 8SE
648,Woolwich,543931,178994,51.49157837,0.071819378,4,None
649,Woolwich Arsenal,543754,178803,51.48990712,0.069193906,4,SE18 6HX
650,Woolwich Dockyard,542738,178908,51.49110779,0.054612348,3,SE18 5JY
651,Worcester Park,522192,166133,51.38110449,-0.245575292,4,KT4 7ND
